data,distretto,codice_comune,denominazione_comune,lat,long,ricoverati_con_sintomi,terapia_intensiva,totale_ospedalizzati,isolamento_domiciliare,totale_positivi,variazione_totale_positivi,nuovi_positivi,dimessi_guariti,deceduti,totale_casi,tamponi,casi_testati,note,ingressi_terapia_intensiva,note_test,note_casi
2022-03-28,39,82006,Bagheria,38.078918,13.512365,,,2,312,314,34,113,6154,160,6628,14190,6628,,,,
2022-03-28,39,82067,Santa Flavia,38.08246,13.52758,,,1,67,68,7,17,1364,23,1455,3197,1455,,,,
2022-03-28,39,82035,Ficarazzi,38.089272,13.46891,,,1,125,126,11,26,1630,10,1766,3741,1766,,,,
2022-03-28,39,82023,Casteldaccia,38.05373,13.52967,,,1,119,120,5,27,1504,26,1650,3562,1650,,,,
2022-03-28,39,82004,Altavilla Milicia,38.0421,13.54901,,,0,60,60,9,23,940,15,1015,2195,1015,,,,
