data,distretto,codice_comune,denominazione_comune,lat,long,ricoverati_con_sintomi,terapia_intensiva,totale_ospedalizzati,isolamento_domiciliare,totale_positivi,variazione_totale_positivi,nuovi_positivi,dimessi_guariti,deceduti,totale_casi,tamponi,casi_testati,note,ingressi_terapia_intensiva,note_test,note_casi
2021-12-15,39,82006,Bagheria,38.078918,13.512365,,,0,79,79,8,8,3658,128,3865,8683,3865,,,,
2021-12-15,39,82067,Santa Flavia,38.08246,13.52758,,,1,9,10,0,0,878,23,911,2092,911,,,,
2021-12-15,39,82035,Ficarazzi,38.089272,13.46891,,,0,15,15,4,4,903,10,928,2112,928,,,,
2021-12-15,39,82023,Casteldaccia,38.05373,13.52967,,,1,21,22,0,0,776,26,824,1938,824,,,,
2021-12-15,39,82004,Altavilla Milicia,38.0421,13.54901,,,0,5,5,0,0,512,13,530,1199,530,,,,
