data,distretto,codice_comune,denominazione_comune,lat,long,ricoverati_con_sintomi,terapia_intensiva,totale_ospedalizzati,isolamento_domiciliare,totale_positivi,variazione_totale_positivi,nuovi_positivi,dimessi_guariti,deceduti,totale_casi,tamponi,casi_testati,note,ingressi_terapia_intensiva,note_test,note_casi
2021-12-26,39,82006,Bagheria,38.078918,13.512365,,,1,148,149,0,0,3692,129,3970,8862,3970,,,,
2021-12-26,39,82067,Santa Flavia,38.08246,13.52758,,,1,18,19,0,0,878,23,920,2109,920,,,,
2021-12-26,39,82035,Ficarazzi,38.089272,13.46891,,,0,31,31,0,0,910,10,951,2149,951,,,,
2021-12-26,39,82023,Casteldaccia,38.05373,13.52967,,,1,38,39,0,0,784,26,849,1980,849,,,,
2021-12-26,39,82004,Altavilla Milicia,38.0421,13.54901,,,0,13,13,0,0,515,13,541,1212,541,,,,
