data,distretto,codice_comune,denominazione_comune,lat,long,ricoverati_con_sintomi,terapia_intensiva,totale_ospedalizzati,isolamento_domiciliare,totale_positivi,variazione_totale_positivi,nuovi_positivi,dimessi_guariti,deceduti,totale_casi,tamponi,casi_testati,note,ingressi_terapia_intensiva,note_test,note_casi
2021-11-30,39,82006,Bagheria,38.078918,13.512365,,,3,62,65,-1,5,3615,126,3806,8548,3806,,,,
2021-11-30,39,82067,Santa Flavia,38.08246,13.52758,,,1,7,8,-3,0,873,23,904,2076,904,,,,
2021-11-30,39,82035,Ficarazzi,38.089272,13.46891,,,0,1,1,0,0,902,10,913,2090,913,,,,
2021-11-30,39,82023,Casteldaccia,38.05373,13.52967,,,1,20,21,-1,0,767,26,814,1904,814,,,,
2021-11-30,39,82004,Altavilla Milicia,38.0421,13.54901,,,0,5,5,0,0,510,13,528,1189,528,,,,
