data,distretto,codice_comune,denominazione_comune,lat,long,ricoverati_con_sintomi,terapia_intensiva,totale_ospedalizzati,isolamento_domiciliare,totale_positivi,variazione_totale_positivi,nuovi_positivi,dimessi_guariti,deceduti,totale_casi,tamponi,casi_testati,note,ingressi_terapia_intensiva,note_test,note_casi
2022-01-22,39,82006,Bagheria,38.078918,13.512365,,,1,300,301,-23,18,4229,130,4660,10265,4660,,,,
2022-01-22,39,82067,Santa Flavia,38.08246,13.52758,,,0,61,61,0,2,962,23,1046,2333,1046,,,,
2022-01-22,39,82035,Ficarazzi,38.089272,13.46891,,,1,96,97,5,13,1011,10,1118,2459,1118,,,,
2022-01-22,39,82023,Casteldaccia,38.05373,13.52967,,,1,144,145,4,7,893,26,1064,2354,1064,,,,
2022-01-22,39,82004,Altavilla Milicia,38.0421,13.54901,,,0,75,75,-3,1,574,13,662,1425,662,,,,
