data,distretto,codice_comune,denominazione_comune,lat,long,ricoverati_con_sintomi,terapia_intensiva,totale_ospedalizzati,isolamento_domiciliare,totale_positivi,variazione_totale_positivi,nuovi_positivi,dimessi_guariti,deceduti,totale_casi,tamponi,casi_testati,note,ingressi_terapia_intensiva,note_test,note_casi
2021-04-07T21:34:00.408Z,39,82006,Bagheria,38.078918,13.512364999999999,,,15,225,240,19,23,2045,85,2370,4704,2370,,,,
2021-04-07T21:34:00.408Z,39,82067,Santa Flavia,38.08246,13.52758,,,2,89,91,-3,0,564,12,667,1422,667,,,,
2021-04-07T21:34:00.408Z,39,82035,Ficarazzi,38.089272,13.46891,,,10,85,95,0,2,541,4,640,1338,640,,,,
2021-04-07T21:34:00.408Z,39,82023,Casteldaccia,38.05373,13.52967,,,4,27,31,-4,0,360,15,406,837,406,,,,
2021-04-07T21:34:00.408Z,39,82004,Altavilla Milicia,38.0421,13.549009999999999,,,2,55,57,-1,1,320,10,387,801,387,,,,
