data,distretto,codice_comune,denominazione_comune,lat,long,ricoverati_con_sintomi,terapia_intensiva,totale_ospedalizzati,isolamento_domiciliare,totale_positivi,variazione_totale_positivi,nuovi_positivi,dimessi_guariti,deceduti,totale_casi,tamponi,casi_testati,note,ingressi_terapia_intensiva,note_test,note_casi
2021-12-17,39,82006,Bagheria,38.078918,13.512365,,,0,93,93,9,13,3662,128,3883,8721,3883,,,,
2021-12-17,39,82067,Santa Flavia,38.08246,13.52758,,,1,9,10,0,0,878,23,911,2094,911,,,,
2021-12-17,39,82035,Ficarazzi,38.089272,13.46891,,,0,18,18,3,3,903,10,931,2116,931,,,,
2021-12-17,39,82023,Casteldaccia,38.05373,13.52967,,,1,24,25,2,2,776,26,827,1941,827,,,,
2021-12-17,39,82004,Altavilla Milicia,38.0421,13.54901,,,0,4,4,-1,2,515,13,532,1201,532,,,,
