data,distretto,codice_comune,denominazione_comune,lat,long,ricoverati_con_sintomi,terapia_intensiva,totale_ospedalizzati,isolamento_domiciliare,totale_positivi,variazione_totale_positivi,nuovi_positivi,dimessi_guariti,deceduti,totale_casi,tamponi,casi_testati,note,ingressi_terapia_intensiva,note_test,note_casi
2021-10-18,39,82006,Bagheria,38.078918,13.512365,,,6,24,30,-12,0,3513,123,3666,8212,3666,,,,
2021-10-18,39,82067,Santa Flavia,38.08246,13.52758,,,0,1,1,-1,0,864,22,887,2044,887,,,,
2021-10-18,39,82035,Ficarazzi,38.089272,13.46891,,,0,8,8,1,1,884,10,902,2048,902,,,,
2021-10-18,39,82023,Casteldaccia,38.05373,13.52967,,,0,18,18,0,3,729,26,773,1805,773,,,,
2021-10-18,39,82004,Altavilla Milicia,38.0421,13.54901,,,0,6,6,0,0,501,13,520,1170,520,,,,
