data,distretto,codice_comune,denominazione_comune,lat,long,ricoverati_con_sintomi,terapia_intensiva,totale_ospedalizzati,isolamento_domiciliare,totale_positivi,variazione_totale_positivi,nuovi_positivi,dimessi_guariti,deceduti,totale_casi,tamponi,casi_testati,note,ingressi_terapia_intensiva,note_test,note_casi
2022-01-19,39,82006,Bagheria,38.078918,13.512365,,,1,324,325,6,45,4173,130,4628,10189,4628,,,,
2022-01-19,39,82067,Santa Flavia,38.08246,13.52758,,,0,50,50,-1,3,958,23,1031,2311,1031,,,,
2022-01-19,39,82035,Ficarazzi,38.089272,13.46891,,,1,88,89,8,6,1004,10,1103,2437,1103,,,,
2022-01-19,39,82023,Casteldaccia,38.05373,13.52967,,,1,127,128,14,16,887,26,1041,2321,1041,,,,
2022-01-19,39,82004,Altavilla Milicia,38.0421,13.54901,,,0,78,78,14,16,566,13,657,1413,657,,,,
