data,distretto,codice_comune,denominazione_comune,lat,long,ricoverati_con_sintomi,terapia_intensiva,totale_ospedalizzati,isolamento_domiciliare,totale_positivi,variazione_totale_positivi,nuovi_positivi,dimessi_guariti,deceduti,totale_casi,tamponi,casi_testati,note,ingressi_terapia_intensiva,note_test,note_casi
2021-09-22,39,82006,Bagheria,38.078918,13.512365,,,7,123,130,-24,-2,3363,119,3612,7989,3612,,,,
2021-09-22,39,82067,Santa Flavia,38.08246,13.52758,,,0,30,30,-4,0,834,22,886,2007,886,,,,
2021-09-22,39,82035,Ficarazzi,38.089272,13.46891,,,0,35,35,-8,0,845,10,890,1991,890,,,,
2021-09-22,39,82023,Casteldaccia,38.05373,13.52967,,,0,22,22,-2,0,708,25,755,1760,755,,,,
2021-09-22,39,82004,Altavilla Milicia,38.0421,13.54901,,,0,15,15,0,0,484,13,512,1154,512,,,,
