data,distretto,codice_comune,denominazione_comune,lat,long,ricoverati_con_sintomi,terapia_intensiva,totale_ospedalizzati,isolamento_domiciliare,totale_positivi,variazione_totale_positivi,nuovi_positivi,dimessi_guariti,deceduti,totale_casi,tamponi,casi_testati,note,ingressi_terapia_intensiva,note_test,note_casi
2021-10-27,39,82006,Bagheria,38.078918,13.512365,,,1,31,32,-6,11,3534,125,3691,8263,3691,,,,
2021-10-27,39,82067,Santa Flavia,38.08246,13.52758,,,0,1,1,0,1,864,23,888,2046,888,,,,
2021-10-27,39,82035,Ficarazzi,38.089272,13.46891,,,0,13,13,1,2,885,10,908,2063,908,,,,
2021-10-27,39,82023,Casteldaccia,38.05373,13.52967,,,0,8,8,-14,1,744,26,778,1818,778,,,,
2021-10-27,39,82004,Altavilla Milicia,38.0421,13.54901,,,0,3,3,-1,0,504,13,520,1174,520,,,,
