data,distretto,codice_comune,denominazione_comune,lat,long,ricoverati_con_sintomi,terapia_intensiva,totale_ospedalizzati,isolamento_domiciliare,totale_positivi,variazione_totale_positivi,nuovi_positivi,dimessi_guariti,deceduti,totale_casi,tamponi,casi_testati,note,ingressi_terapia_intensiva,note_test,note_casi
2022-02-20,39,82006,Bagheria,38.078918,13.512365,,,2,702,704,-55,8,4656,132,5492,11583,5492,,,,
2022-02-20,39,82067,Santa Flavia,38.08246,13.52758,,,0,89,89,-85,0,1098,23,1210,2653,1210,,,,
2022-02-20,39,82035,Ficarazzi,38.089272,13.46891,,,1,123,124,-165,1,1234,10,1368,2968,1368,,,,
2022-02-20,39,82023,Casteldaccia,38.05373,13.52967,,,1,260,261,-10,2,1003,26,1290,2694,1290,,,,
2022-02-20,39,82004,Altavilla Milicia,38.0421,13.54901,,,0,59,59,-72,1,718,15,792,1714,792,,,,
