data,distretto,codice_comune,denominazione_comune,lat,long,ricoverati_con_sintomi,terapia_intensiva,totale_ospedalizzati,isolamento_domiciliare,totale_positivi,variazione_totale_positivi,nuovi_positivi,dimessi_guariti,deceduti,totale_casi,tamponi,casi_testati,note,ingressi_terapia_intensiva,note_test,note_casi
2021-04-01T19:16:15.887Z,39,82006,Bagheria,38.078918,13.512364999999999,,,14,175,189,-10,8,2026,85,2300,4564,2300,,,,
2021-04-01T19:16:15.887Z,39,82067,Santa Flavia,38.08246,13.52758,,,2,87,89,-2,0,554,12,655,1377,655,,,,
2021-04-01T19:16:15.887Z,39,82035,Ficarazzi,38.089272,13.46891,,,9,74,83,-2,4,537,4,624,1301,624,,,,
2021-04-01T19:16:15.887Z,39,82023,Casteldaccia,38.05373,13.52967,,,4,34,38,0,4,347,15,400,811,400,,,,
2021-04-01T19:16:15.887Z,39,82004,Altavilla Milicia,38.0421,13.549009999999999,,,3,69,72,-2,0,303,9,384,780,384,,,,
