data,distretto,codice_comune,denominazione_comune,lat,long,ricoverati_con_sintomi,terapia_intensiva,totale_ospedalizzati,isolamento_domiciliare,totale_positivi,variazione_totale_positivi,nuovi_positivi,dimessi_guariti,deceduti,totale_casi,tamponi,casi_testati,note,ingressi_terapia_intensiva,note_test,note_casi
2022-01-14,39,82006,Bagheria,38.078918,13.512365,,,1,355,356,-39,19,4033,129,4518,9941,4518,,,,
2022-01-14,39,82067,Santa Flavia,38.08246,13.52758,,,0,52,52,-3,5,941,23,1016,2289,1016,,,,
2022-01-14,39,82035,Ficarazzi,38.089272,13.46891,,,0,89,89,4,9,982,10,1081,2396,1081,,,,
2022-01-14,39,82023,Casteldaccia,38.05373,13.52967,,,0,98,98,7,19,871,26,995,2259,995,,,,
2022-01-14,39,82004,Altavilla Milicia,38.0421,13.54901,,,0,50,50,-5,4,552,13,615,1350,615,,,,
