data,distretto,codice_comune,denominazione_comune,lat,long,ricoverati_con_sintomi,terapia_intensiva,totale_ospedalizzati,isolamento_domiciliare,totale_positivi,variazione_totale_positivi,nuovi_positivi,dimessi_guariti,deceduti,totale_casi,tamponi,casi_testati,note,ingressi_terapia_intensiva,note_test,note_casi
2021-05-03,39,82006,Bagheria,38.078918,13.512365,,,12,435,447,-12,7,2296,106,2849,5733,2849,,,,
2021-05-03,39,82067,Santa Flavia,38.08246,13.52758,,,3,53,56,-5,1,662,17,735,1606,735,,,,
2021-05-03,39,82035,Ficarazzi,38.089272,13.46891,,,4,63,67,-3,0,652,9,728,1561,728,,,,
2021-05-03,39,82023,Casteldaccia,38.05373,13.52967,,,5,107,112,1,4,386,19,517,1031,517,,,,
2021-05-03,39,82004,Altavilla Milicia,38.0421,13.54901,,,3,56,59,-1,0,366,12,437,928,437,,,,
