data,distretto,codice_comune,denominazione_comune,lat,long,ricoverati_con_sintomi,terapia_intensiva,totale_ospedalizzati,isolamento_domiciliare,totale_positivi,variazione_totale_positivi,nuovi_positivi,dimessi_guariti,deceduti,totale_casi,tamponi,casi_testati,note,ingressi_terapia_intensiva,note_test,note_casi
2021-11-08,39,82006,Bagheria,38.078918,13.512365,,,6,45,51,1,4,3541,126,3718,8321,3718,,,,
2021-11-08,39,82067,Santa Flavia,38.08246,13.52758,,,0,7,7,5,5,864,23,894,2053,894,,,,
2021-11-08,39,82035,Ficarazzi,38.089272,13.46891,,,0,8,8,1,1,893,10,911,2076,911,,,,
2021-11-08,39,82023,Casteldaccia,38.05373,13.52967,,,0,3,3,-4,0,751,26,780,1829,780,,,,
2021-11-08,39,82004,Altavilla Milicia,38.0421,13.54901,,,0,2,2,0,0,506,13,521,1176,521,,,,
