data,distretto,codice_comune,denominazione_comune,lat,long,ricoverati_con_sintomi,terapia_intensiva,totale_ospedalizzati,isolamento_domiciliare,totale_positivi,variazione_totale_positivi,nuovi_positivi,dimessi_guariti,deceduti,totale_casi,tamponi,casi_testati,note,ingressi_terapia_intensiva,note_test,note_casi
2021-06-03,39,82006,Bagheria,38.078918,13.512365,,,0,81,81,-2,0,2795,115,2991,6396,2991,,,,
2021-06-03,39,82067,Santa Flavia,38.08246,13.52758,,,2,13,15,-1,0,718,19,752,1690,752,,,,
2021-06-03,39,82035,Ficarazzi,38.089272,13.46891,,,5,17,22,0,0,718,9,749,1657,749,,,,
2021-06-03,39,82023,Casteldaccia,38.05373,13.52967,,,4,52,56,8,8,494,21,571,1252,571,,,,
2021-06-03,39,82004,Altavilla Milicia,38.0421,13.54901,,,1,10,11,-1,0,434,13,458,1005,458,,,,
