data,distretto,codice_comune,denominazione_comune,lat,long,ricoverati_con_sintomi,terapia_intensiva,totale_ospedalizzati,isolamento_domiciliare,totale_positivi,variazione_totale_positivi,nuovi_positivi,dimessi_guariti,deceduti,totale_casi,tamponi,casi_testati,note,ingressi_terapia_intensiva,note_test,note_casi
2021-12-31,39,82006,Bagheria,38.078918,13.512365,,,2,218,220,10,10,3715,129,4064,9007,4064,,,,
2021-12-31,39,82067,Santa Flavia,38.08246,13.52758,,,0,39,39,1,1,883,23,945,2138,945,,,,
2021-12-31,39,82035,Ficarazzi,38.089272,13.46891,,,0,59,59,1,1,911,10,980,2183,980,,,,
2021-12-31,39,82023,Casteldaccia,38.05373,13.52967,,,0,61,61,0,0,791,26,878,2016,878,,,,
2021-12-31,39,82004,Altavilla Milicia,38.0421,13.54901,,,0,25,25,0,0,518,13,556,1230,556,,,,
