data,distretto,codice_comune,denominazione_comune,lat,long,ricoverati_con_sintomi,terapia_intensiva,totale_ospedalizzati,isolamento_domiciliare,totale_positivi,variazione_totale_positivi,nuovi_positivi,dimessi_guariti,deceduti,totale_casi,tamponi,casi_testati,note,ingressi_terapia_intensiva,note_test,note_casi
2021-04-10T00:23:13.924Z,39,82006,Bagheria,38.078918,13.512364999999999,,,6,219,225,-9,0,2073,106,2404,4769,2404,,,,
2021-04-10T00:23:13.924Z,39,82067,Santa Flavia,38.08246,13.52758,,,2,72,74,-3,0,583,13,670,1441,670,,,,
2021-04-10T00:23:13.924Z,39,82035,Ficarazzi,38.089272,13.46891,,,10,80,90,0,0,564,4,658,1368,658,,,,
2021-04-10T00:23:13.924Z,39,82023,Casteldaccia,38.05373,13.52967,,,4,27,31,-1,0,365,15,411,845,411,,,,
2021-04-10T00:23:13.924Z,39,82004,Altavilla Milicia,38.0421,13.549009999999999,,,2,48,50,-3,1,331,11,392,814,392,,,,
