data,distretto,codice_comune,denominazione_comune,lat,long,ricoverati_con_sintomi,terapia_intensiva,totale_ospedalizzati,isolamento_domiciliare,totale_positivi,variazione_totale_positivi,nuovi_positivi,dimessi_guariti,deceduti,totale_casi,tamponi,casi_testati,note,ingressi_terapia_intensiva,note_test,note_casi
2022-01-08,39,82006,Bagheria,38.078918,13.512365,,,2,473,475,29,59,3842,129,4446,9632,4446,,,,
2022-01-08,39,82067,Santa Flavia,38.08246,13.52758,,,0,74,74,3,9,902,23,999,2235,999,,,,
2022-01-08,39,82035,Ficarazzi,38.089272,13.46891,,,0,107,107,-6,10,945,10,1062,2327,1062,,,,
2022-01-08,39,82023,Casteldaccia,38.05373,13.52967,,,0,94,94,-13,8,836,26,956,2179,956,,,,
2022-01-08,39,82004,Altavilla Milicia,38.0421,13.54901,,,0,71,71,2,8,527,13,611,1315,611,,,,
