data,distretto,codice_comune,denominazione_comune,lat,long,ricoverati_con_sintomi,terapia_intensiva,totale_ospedalizzati,isolamento_domiciliare,totale_positivi,variazione_totale_positivi,nuovi_positivi,dimessi_guariti,deceduti,totale_casi,tamponi,casi_testati,note,ingressi_terapia_intensiva,note_test,note_casi
2022-01-30,39,82006,Bagheria,38.078918,13.512365,,,2,548,550,19,61,4343,131,5024,10778,5024,,,,
2022-01-30,39,82067,Santa Flavia,38.08246,13.52758,,,0,118,118,9,14,971,23,1112,2419,1112,,,,
2022-01-30,39,82035,Ficarazzi,38.089272,13.46891,,,0,197,197,5,14,1023,10,1230,2596,1230,,,,
2022-01-30,39,82023,Casteldaccia,38.05373,13.52967,,,1,185,186,17,19,926,26,1138,2456,1138,,,,
2022-01-30,39,82004,Altavilla Milicia,38.0421,13.54901,,,0,87,87,5,8,612,15,714,1525,714,,,,
