data,distretto,codice_comune,denominazione_comune,lat,long,ricoverati_con_sintomi,terapia_intensiva,totale_ospedalizzati,isolamento_domiciliare,totale_positivi,variazione_totale_positivi,nuovi_positivi,dimessi_guariti,deceduti,totale_casi,tamponi,casi_testati,note,ingressi_terapia_intensiva,note_test,note_casi
2022-01-09,39,82006,Bagheria,38.078918,13.512365,,,2,464,466,-9,20,3871,129,4466,9720,4466,,,,
2022-01-09,39,82067,Santa Flavia,38.08246,13.52758,,,0,67,67,-7,0,909,23,999,2245,999,,,,
2022-01-09,39,82035,Ficarazzi,38.089272,13.46891,,,0,104,104,-3,2,950,10,1064,2344,1064,,,,
2022-01-09,39,82023,Casteldaccia,38.05373,13.52967,,,0,97,97,3,5,838,26,961,2191,961,,,,
2022-01-09,39,82004,Altavilla Milicia,38.0421,13.54901,,,0,68,68,-3,0,530,13,611,1327,611,,,,
