data,distretto,codice_comune,denominazione_comune,lat,long,ricoverati_con_sintomi,terapia_intensiva,totale_ospedalizzati,isolamento_domiciliare,totale_positivi,variazione_totale_positivi,nuovi_positivi,dimessi_guariti,deceduti,totale_casi,tamponi,casi_testati,note,ingressi_terapia_intensiva,note_test,note_casi
2022-01-01,39,82006,Bagheria,38.078918,13.512365,,,2,249,251,31,34,3718,129,4098,9066,4098,,,,
2022-01-01,39,82067,Santa Flavia,38.08246,13.52758,,,0,44,44,5,5,883,23,950,2149,950,,,,
2022-01-01,39,82035,Ficarazzi,38.089272,13.46891,,,0,68,68,9,12,914,10,992,2202,992,,,,
2022-01-01,39,82023,Casteldaccia,38.05373,13.52967,,,0,85,85,24,26,793,26,904,2053,904,,,,
2022-01-01,39,82004,Altavilla Milicia,38.0421,13.54901,,,0,41,41,16,16,518,13,572,1250,572,,,,
