data,distretto,codice_comune,denominazione_comune,lat,long,ricoverati_con_sintomi,terapia_intensiva,totale_ospedalizzati,isolamento_domiciliare,totale_positivi,variazione_totale_positivi,nuovi_positivi,dimessi_guariti,deceduti,totale_casi,tamponi,casi_testati,note,ingressi_terapia_intensiva,note_test,note_casi
2021-06-22,39,82006,Bagheria,38.078918,13.512365,,,3,21,24,-8,0,2880,117,3021,6534,3021,,,,
2021-06-22,39,82067,Santa Flavia,38.08246,13.52758,,,0,2,2,-8,0,735,20,757,1708,757,,,,
2021-06-22,39,82035,Ficarazzi,38.089272,13.46891,,,0,0,0,0,0,739,10,749,1670,749,,,,
2021-06-22,39,82023,Casteldaccia,38.05373,13.52967,,,0,13,13,-4,0,550,24,587,1311,587,,,,
2021-06-22,39,82004,Altavilla Milicia,38.0421,13.54901,,,0,3,3,-1,0,444,13,460,1018,460,,,,
