data,distretto,codice_comune,denominazione_comune,lat,long,ricoverati_con_sintomi,terapia_intensiva,totale_ospedalizzati,isolamento_domiciliare,totale_positivi,variazione_totale_positivi,nuovi_positivi,dimessi_guariti,deceduti,totale_casi,tamponi,casi_testati,note,ingressi_terapia_intensiva,note_test,note_casi
2021-12-13,39,82006,Bagheria,38.078918,13.512365,,,0,62,62,5,5,3653,128,3843,8653,3843,,,,
2021-12-13,39,82067,Santa Flavia,38.08246,13.52758,,,1,10,11,0,0,877,23,911,2092,911,,,,
2021-12-13,39,82035,Ficarazzi,38.089272,13.46891,,,0,10,10,2,2,903,10,923,2104,923,,,,
2021-12-13,39,82023,Casteldaccia,38.05373,13.52967,,,1,21,22,2,2,776,26,824,1937,824,,,,
2021-12-13,39,82004,Altavilla Milicia,38.0421,13.54901,,,0,5,5,2,2,512,13,530,1196,530,,,,
