data,distretto,codice_comune,denominazione_comune,lat,long,ricoverati_con_sintomi,terapia_intensiva,totale_ospedalizzati,isolamento_domiciliare,totale_positivi,variazione_totale_positivi,nuovi_positivi,dimessi_guariti,deceduti,totale_casi,tamponi,casi_testati,note,ingressi_terapia_intensiva,note_test,note_casi
2022-03-29,39,82006,Bagheria,38.078918,13.512365,,,2,361,363,49,63,6168,160,6691,14267,6691,,,,
2022-03-29,39,82067,Santa Flavia,38.08246,13.52758,,,1,80,81,13,15,1366,23,1470,3218,1470,,,,
2022-03-29,39,82035,Ficarazzi,38.089272,13.46891,,,1,137,138,12,13,1631,10,1779,3755,1779,,,,
2022-03-29,39,82023,Casteldaccia,38.05373,13.52967,,,1,136,137,17,19,1506,26,1669,3585,1669,,,,
2022-03-29,39,82004,Altavilla Milicia,38.0421,13.54901,,,0,76,76,16,20,944,15,1035,2219,1035,,,,
