data,distretto,codice_comune,denominazione_comune,lat,long,ricoverati_con_sintomi,terapia_intensiva,totale_ospedalizzati,isolamento_domiciliare,totale_positivi,variazione_totale_positivi,nuovi_positivi,dimessi_guariti,deceduti,totale_casi,tamponi,casi_testati,note,ingressi_terapia_intensiva,note_test,note_casi
2022-07-17,39,82006,Bagheria,38.078918,13.512365,,,1,337,338,110,379,7720,160,8218,17193,8218,,,,
2022-07-17,39,82067,Santa Flavia,38.08246,13.52758,,,0,49,49,1,52,1691,23,1763,3815,1763,,,,
2022-07-17,39,82035,Ficarazzi,38.089272,13.46891,,,0,50,50,15,67,2024,10,2084,4422,2084,,,,
2022-07-17,39,82023,Casteldaccia,38.05373,13.52967,,,0,78,78,30,85,1895,29,2002,4281,2002,,,,
2022-07-17,39,82004,Altavilla Milicia,38.0421,13.54901,,,1,19,20,-9,35,1264,15,1299,2806,1299,,,,
