data,distretto,codice_comune,denominazione_comune,lat,long,ricoverati_con_sintomi,terapia_intensiva,totale_ospedalizzati,isolamento_domiciliare,totale_positivi,variazione_totale_positivi,nuovi_positivi,dimessi_guariti,deceduti,totale_casi,tamponi,casi_testati,note,ingressi_terapia_intensiva,note_test,note_casi
2022-05-04,39,82006,Bagheria,38.078918,13.512365,,,1,266,267,54,116,6970,160,7397,15785,7397,,,,
2022-05-04,39,82067,Santa Flavia,38.08246,13.52758,,,0,42,42,4,21,1549,23,1614,3549,1614,,,,
2022-05-04,39,82035,Ficarazzi,38.089272,13.46891,,,1,71,72,5,19,1853,10,1935,4139,1935,,,,
2022-05-04,39,82023,Casteldaccia,38.05373,13.52967,,,1,63,64,12,30,1734,27,1825,3978,1825,,,,
2022-05-04,39,82004,Altavilla Milicia,38.0421,13.54901,,,0,54,54,21,38,1123,15,1192,2570,1192,,,,
