data,distretto,codice_comune,denominazione_comune,lat,long,ricoverati_con_sintomi,terapia_intensiva,totale_ospedalizzati,isolamento_domiciliare,totale_positivi,variazione_totale_positivi,nuovi_positivi,dimessi_guariti,deceduti,totale_casi,tamponi,casi_testati,note,ingressi_terapia_intensiva,note_test,note_casi
2021-08-05,39,82006,Bagheria,38.078918,13.512365,,,0,107,107,11,11,2926,117,3150,6790,3150,,,,
2021-08-05,39,82067,Santa Flavia,38.08246,13.52758,,,0,25,25,2,2,734,20,779,1748,779,,,,
2021-08-05,39,82035,Ficarazzi,38.089272,13.46891,,,0,24,24,1,2,741,10,775,1703,775,,,,
2021-08-05,39,82023,Casteldaccia,38.05373,13.52967,,,0,28,28,1,1,570,25,623,1387,623,,,,
2021-08-05,39,82004,Altavilla Milicia,38.0421,13.54901,,,0,10,10,2,2,453,13,476,1051,476,,,,
