data,distretto,codice_comune,denominazione_comune,lat,long,ricoverati_con_sintomi,terapia_intensiva,totale_ospedalizzati,isolamento_domiciliare,totale_positivi,variazione_totale_positivi,nuovi_positivi,dimessi_guariti,deceduti,totale_casi,tamponi,casi_testati,note,ingressi_terapia_intensiva,note_test,note_casi
2021-10-07,39,82006,Bagheria,38.078918,13.512365,,,6,58,64,-1,2,3470,123,3657,8143,3657,,,,
2021-10-07,39,82067,Santa Flavia,38.08246,13.52758,,,0,7,7,-1,0,858,22,887,2041,887,,,,
2021-10-07,39,82035,Ficarazzi,38.089272,13.46891,,,0,13,13,0,0,871,10,894,2029,894,,,,
2021-10-07,39,82023,Casteldaccia,38.05373,13.52967,,,0,16,16,0,0,726,26,768,1776,768,,,,
2021-10-07,39,82004,Altavilla Milicia,38.0421,13.54901,,,0,4,4,0,0,499,13,516,1162,516,,,,
