data,distretto,codice_comune,denominazione_comune,lat,long,ricoverati_con_sintomi,terapia_intensiva,totale_ospedalizzati,isolamento_domiciliare,totale_positivi,variazione_totale_positivi,nuovi_positivi,dimessi_guariti,deceduti,totale_casi,tamponi,casi_testati,note,ingressi_terapia_intensiva,note_test,note_casi
2022-02-07,39,82006,Bagheria,38.078918,13.512365,,,2,717,719,92,143,4433,131,5283,11133,5283,,,,
2022-02-07,39,82067,Santa Flavia,38.08246,13.52758,,,0,147,147,20,24,992,23,1162,2495,1162,,,,
2022-02-07,39,82035,Ficarazzi,38.089272,13.46891,,,1,276,277,44,47,1036,10,1323,2717,1323,,,,
2022-02-07,39,82023,Casteldaccia,38.05373,13.52967,,,1,256,257,51,60,944,26,1227,2558,1227,,,,
2022-02-07,39,82004,Altavilla Milicia,38.0421,13.54901,,,0,129,129,21,29,624,15,768,1591,768,,,,
