data,distretto,codice_comune,denominazione_comune,lat,long,ricoverati_con_sintomi,terapia_intensiva,totale_ospedalizzati,isolamento_domiciliare,totale_positivi,variazione_totale_positivi,nuovi_positivi,dimessi_guariti,deceduti,totale_casi,tamponi,casi_testati,note,ingressi_terapia_intensiva,note_test,note_casi
2022-01-16,39,82006,Bagheria,38.078918,13.512365,,,1,318,319,-46,30,4124,130,4573,10074,4573,,,,
2022-01-16,39,82067,Santa Flavia,38.08246,13.52758,,,0,47,47,-10,2,954,23,1024,2300,1024,,,,
2022-01-16,39,82035,Ficarazzi,38.089272,13.46891,,,0,83,83,-8,13,1004,10,1097,2423,1097,,,,
2022-01-16,39,82023,Casteldaccia,38.05373,13.52967,,,0,113,113,7,15,885,26,1024,2302,1024,,,,
2022-01-16,39,82004,Altavilla Milicia,38.0421,13.54901,,,0,41,41,-12,0,564,13,618,1370,618,,,,
