data,distretto,codice_comune,denominazione_comune,lat,long,ricoverati_con_sintomi,terapia_intensiva,totale_ospedalizzati,isolamento_domiciliare,totale_positivi,variazione_totale_positivi,nuovi_positivi,dimessi_guariti,deceduti,totale_casi,tamponi,casi_testati,note,ingressi_terapia_intensiva,note_test,note_casi
2022-03-30,39,82006,Bagheria,38.078918,13.512365,,,2,385,387,24,35,6179,160,6726,14313,6726,,,,
2022-03-30,39,82067,Santa Flavia,38.08246,13.52758,,,1,81,82,1,6,1371,23,1476,3229,1476,,,,
2022-03-30,39,82035,Ficarazzi,38.089272,13.46891,,,1,145,146,8,16,1639,10,1795,3779,1795,,,,
2022-03-30,39,82023,Casteldaccia,38.05373,13.52967,,,1,135,136,-1,3,1510,26,1672,3592,1672,,,,
2022-03-30,39,82004,Altavilla Milicia,38.0421,13.54901,,,0,88,88,12,12,944,15,1047,2231,1047,,,,
