data,distretto,codice_comune,denominazione_comune,lat,long,ricoverati_con_sintomi,terapia_intensiva,totale_ospedalizzati,isolamento_domiciliare,totale_positivi,variazione_totale_positivi,nuovi_positivi,dimessi_guariti,deceduti,totale_casi,tamponi,casi_testati,note,ingressi_terapia_intensiva,note_test,note_casi
2022-03-25,39,82006,Bagheria,38.078918,13.512365,,,2,278,280,-11,137,6075,160,6515,13980,6515,,,,
2022-03-25,39,82067,Santa Flavia,38.08246,13.52758,,,1,60,61,-6,28,1354,23,1438,3168,1438,,,,
2022-03-25,39,82035,Ficarazzi,38.089272,13.46891,,,1,114,115,-7,49,1615,10,1740,3696,1740,,,,
2022-03-25,39,82023,Casteldaccia,38.05373,13.52967,,,1,114,115,-13,36,1482,26,1623,3503,1623,,,,
2022-03-25,39,82004,Altavilla Milicia,38.0421,13.54901,,,0,51,51,3,19,926,15,992,2155,992,,,,
