data,distretto,codice_comune,denominazione_comune,lat,long,ricoverati_con_sintomi,terapia_intensiva,totale_ospedalizzati,isolamento_domiciliare,totale_positivi,variazione_totale_positivi,nuovi_positivi,dimessi_guariti,deceduti,totale_casi,tamponi,casi_testati,note,ingressi_terapia_intensiva,note_test,note_casi
2021-09-09,39,82006,Bagheria,38.078918,13.512365,,,4,258,262,-16,1,3152,118,3532,7629,3532,,,,
2021-09-09,39,82067,Santa Flavia,38.08246,13.52758,,,0,46,46,-2,1,793,21,860,1917,860,,,,
2021-09-09,39,82035,Ficarazzi,38.089272,13.46891,,,0,66,66,-3,0,781,10,857,1873,857,,,,
2021-09-09,39,82023,Casteldaccia,38.05373,13.52967,,,1,78,79,-6,0,645,25,749,1669,749,,,,
2021-09-09,39,82004,Altavilla Milicia,38.0421,13.54901,,,0,19,19,-4,0,477,13,509,1136,509,,,,
