data,distretto,codice_comune,denominazione_comune,lat,long,ricoverati_con_sintomi,terapia_intensiva,totale_ospedalizzati,isolamento_domiciliare,totale_positivi,variazione_totale_positivi,nuovi_positivi,dimessi_guariti,deceduti,totale_casi,tamponi,casi_testati,note,ingressi_terapia_intensiva,note_test,note_casi
2022-02-16,39,82006,Bagheria,38.078918,13.512365,,,3,731,734,-9,4,4578,132,5444,11461,5444,,,,
2022-02-16,39,82067,Santa Flavia,38.08246,13.52758,,,0,163,163,4,4,1009,23,1195,2547,1195,,,,
2022-02-16,39,82035,Ficarazzi,38.089272,13.46891,,,1,287,288,-4,0,1064,10,1362,2786,1362,,,,
2022-02-16,39,82023,Casteldaccia,38.05373,13.52967,,,1,277,278,-4,5,980,26,1284,2662,1284,,,,
2022-02-16,39,82004,Altavilla Milicia,38.0421,13.54901,,,0,126,126,1,2,643,15,784,1628,784,,,,
