data,distretto,codice_comune,denominazione_comune,lat,long,ricoverati_con_sintomi,terapia_intensiva,totale_ospedalizzati,isolamento_domiciliare,totale_positivi,variazione_totale_positivi,nuovi_positivi,dimessi_guariti,deceduti,totale_casi,tamponi,casi_testati,note,ingressi_terapia_intensiva,note_test,note_casi
2021-09-29,39,82006,Bagheria,38.078918,13.512365,,,4,80,84,-43,2,3420,123,3627,8079,3627,,,,
2021-09-29,39,82067,Santa Flavia,38.08246,13.52758,,,0,24,24,-7,0,841,22,887,2029,887,,,,
2021-09-29,39,82035,Ficarazzi,38.089272,13.46891,,,0,25,25,-7,0,859,10,894,2012,894,,,,
2021-09-29,39,82023,Casteldaccia,38.05373,13.52967,,,0,4,4,-13,-1,724,26,754,1761,754,,,,
2021-09-29,39,82004,Altavilla Milicia,38.0421,13.54901,,,0,0,0,-14,0,499,13,512,1158,512,,,,
