data,distretto,codice_comune,denominazione_comune,lat,long,ricoverati_con_sintomi,terapia_intensiva,totale_ospedalizzati,isolamento_domiciliare,totale_positivi,variazione_totale_positivi,nuovi_positivi,dimessi_guariti,deceduti,totale_casi,tamponi,casi_testati,note,ingressi_terapia_intensiva,note_test,note_casi
2021-10-24,39,82006,Bagheria,38.078918,13.512365,,,4,34,38,5,5,3519,123,3680,8242,3680,,,,
2021-10-24,39,82067,Santa Flavia,38.08246,13.52758,,,0,1,1,0,0,864,22,887,2045,887,,,,
2021-10-24,39,82035,Ficarazzi,38.089272,13.46891,,,0,12,12,0,0,884,10,906,2060,906,,,,
2021-10-24,39,82023,Casteldaccia,38.05373,13.52967,,,0,22,22,1,1,729,26,777,1812,777,,,,
2021-10-24,39,82004,Altavilla Milicia,38.0421,13.54901,,,0,4,4,-1,0,503,13,520,1174,520,,,,
