data,distretto,codice_comune,denominazione_comune,lat,long,ricoverati_con_sintomi,terapia_intensiva,totale_ospedalizzati,isolamento_domiciliare,totale_positivi,variazione_totale_positivi,nuovi_positivi,dimessi_guariti,deceduti,totale_casi,tamponi,casi_testati,note,ingressi_terapia_intensiva,note_test,note_casi
2021-04-21,39,82006,Bagheria,38.078918,13.512365,,,11,394,405,17,25,2148,106,2659,5214,2659,,,,
2021-04-21,39,82067,Santa Flavia,38.08246,13.52758,,,4,55,59,-8,1,634,15,708,1535,708,,,,
2021-04-21,39,82035,Ficarazzi,38.089272,13.46891,,,9,61,70,3,8,615,4,689,1461,689,,,,
2021-04-21,39,82023,Casteldaccia,38.05373,13.52967,,,4,55,59,0,0,377,16,452,912,452,,,,
2021-04-21,39,82004,Altavilla Milicia,38.0421,13.54901,,,3,46,49,0,3,356,11,416,877,416,,,,
