data,distretto,codice_comune,denominazione_comune,lat,long,ricoverati_con_sintomi,terapia_intensiva,totale_ospedalizzati,isolamento_domiciliare,totale_positivi,variazione_totale_positivi,nuovi_positivi,dimessi_guariti,deceduti,totale_casi,tamponi,casi_testati,note,ingressi_terapia_intensiva,note_test,note_casi
2021-11-24,39,82006,Bagheria,38.078918,13.512365,,,3,83,86,16,19,3568,126,3780,8475,3780,,,,
2021-11-24,39,82067,Santa Flavia,38.08246,13.52758,,,1,8,9,1,1,867,23,899,2066,899,,,,
2021-11-24,39,82035,Ficarazzi,38.089272,13.46891,,,0,3,3,0,0,900,10,913,2087,913,,,,
2021-11-24,39,82023,Casteldaccia,38.05373,13.52967,,,1,16,17,-4,1,760,26,803,1877,803,,,,
2021-11-24,39,82004,Altavilla Milicia,38.0421,13.54901,,,0,5,5,0,0,507,13,525,1182,525,,,,
