data,distretto,codice_comune,denominazione_comune,lat,long,ricoverati_con_sintomi,terapia_intensiva,totale_ospedalizzati,isolamento_domiciliare,totale_positivi,variazione_totale_positivi,nuovi_positivi,dimessi_guariti,deceduti,totale_casi,tamponi,casi_testati,note,ingressi_terapia_intensiva,note_test,note_casi
2021-10-04,39,82006,Bagheria,38.078918,13.512365,,,6,102,108,0,0,3420,123,3651,8135,3651,,,,
2021-10-04,39,82067,Santa Flavia,38.08246,13.52758,,,0,23,23,0,0,842,22,887,2040,887,,,,
2021-10-04,39,82035,Ficarazzi,38.089272,13.46891,,,0,24,24,0,0,860,10,894,2024,894,,,,
2021-10-04,39,82023,Casteldaccia,38.05373,13.52967,,,0,4,4,0,0,724,26,754,1762,754,,,,
2021-10-04,39,82004,Altavilla Milicia,38.0421,13.54901,,,0,3,3,0,0,499,13,515,1161,515,,,,
