data,distretto,codice_comune,denominazione_comune,lat,long,ricoverati_con_sintomi,terapia_intensiva,totale_ospedalizzati,isolamento_domiciliare,totale_positivi,variazione_totale_positivi,nuovi_positivi,dimessi_guariti,deceduti,totale_casi,tamponi,casi_testati,note,ingressi_terapia_intensiva,note_test,note_casi
2021-10-23,39,82006,Bagheria,38.078918,13.512365,,,4,29,33,0,2,3519,123,3675,8236,3675,,,,
2021-10-23,39,82067,Santa Flavia,38.08246,13.52758,,,0,1,1,0,0,864,22,887,2045,887,,,,
2021-10-23,39,82035,Ficarazzi,38.089272,13.46891,,,0,12,12,4,4,884,10,906,2060,906,,,,
2021-10-23,39,82023,Casteldaccia,38.05373,13.52967,,,0,21,21,2,2,729,26,776,1811,776,,,,
2021-10-23,39,82004,Altavilla Milicia,38.0421,13.54901,,,0,5,5,0,0,502,13,520,1174,520,,,,
