data,distretto,codice_comune,denominazione_comune,lat,long,ricoverati_con_sintomi,terapia_intensiva,totale_ospedalizzati,isolamento_domiciliare,totale_positivi,variazione_totale_positivi,nuovi_positivi,dimessi_guariti,deceduti,totale_casi,tamponi,casi_testati,note,ingressi_terapia_intensiva,note_test,note_casi
2021-04-11T18:16:43.703Z,39,82006,Bagheria,38.078918,13.512364999999999,,,6,219,225,0,4,2077,106,2408,4792,2408,,,,
2021-04-11T18:16:43.703Z,39,82067,Santa Flavia,38.08246,13.52758,,,2,77,79,5,5,583,13,675,1446,675,,,,
2021-04-11T18:16:43.703Z,39,82035,Ficarazzi,38.089272,13.46891,,,10,82,92,2,4,566,4,662,1381,662,,,,
2021-04-11T18:16:43.703Z,39,82023,Casteldaccia,38.05373,13.52967,,,4,27,31,0,0,365,15,411,847,411,,,,
2021-04-11T18:16:43.703Z,39,82004,Altavilla Milicia,38.0421,13.549009999999999,,,2,49,51,1,2,332,11,394,821,394,,,,
