data,distretto,codice_comune,denominazione_comune,lat,long,ricoverati_con_sintomi,terapia_intensiva,totale_ospedalizzati,isolamento_domiciliare,totale_positivi,variazione_totale_positivi,nuovi_positivi,dimessi_guariti,deceduti,totale_casi,tamponi,casi_testati,note,ingressi_terapia_intensiva,note_test,note_casi
2021-05-14,39,82006,Bagheria,38.078918,13.512365,,,8,227,235,-30,9,2553,106,2894,6094,2894,,,,
2021-05-14,39,82067,Santa Flavia,38.08246,13.52758,,,3,42,45,0,1,686,17,748,1647,748,,,,
2021-05-14,39,82035,Ficarazzi,38.089272,13.46891,,,5,31,36,-2,0,696,9,741,1619,741,,,,
2021-05-14,39,82023,Casteldaccia,38.05373,13.52967,,,5,72,77,-8,1,438,20,535,1135,535,,,,
2021-05-14,39,82004,Altavilla Milicia,38.0421,13.54901,,,1,42,43,-1,1,390,12,445,964,445,,,,
