data,distretto,codice_comune,denominazione_comune,lat,long,ricoverati_con_sintomi,terapia_intensiva,totale_ospedalizzati,isolamento_domiciliare,totale_positivi,variazione_totale_positivi,nuovi_positivi,dimessi_guariti,deceduti,totale_casi,tamponi,casi_testati,note,ingressi_terapia_intensiva,note_test,note_casi
2021-04-27,39,82006,Bagheria,38.078918,13.512365,,,13,434,447,1,14,2210,106,2763,5478,2763,,,,
2021-04-27,39,82067,Santa Flavia,38.08246,13.52758,,,3,56,59,1,2,642,17,718,1558,718,,,,
2021-04-27,39,82035,Ficarazzi,38.089272,13.46891,,,4,57,61,-3,2,642,9,712,1513,712,,,,
2021-04-27,39,82023,Casteldaccia,38.05373,13.52967,,,4,80,84,4,5,382,18,484,962,484,,,,
2021-04-27,39,82004,Altavilla Milicia,38.0421,13.54901,,,3,54,57,0,3,363,11,431,901,431,,,,
